City,Lat,Lng,Max Temp,Humidity,Cloudiness,Wind Speed,Country,Date
quesnel,52.9999,-122.5029,28.4,100,90,2.06,CA,1612573797
kalat,29.0225,66.5916,34.57,51,0,1.86,PK,1612573798
kapaa,22.0752,-159.319,71.6,56,1,5.75,US,1612573634
oruro,-17.9833,-67.15,52.79,63,28,14.45,BO,1612573718
longyearbyen,78.2186,15.6401,28.4,69,75,16.11,SJ,1612573798
vadso,70.0744,29.7487,26.6,59,75,19.57,NO,1612573798
gelendzhik,44.5731,38.0747,38.52,73,100,6.6,RU,1612573798
punta arenas,-53.15,-70.9167,48.2,61,0,16.11,CL,1612573798
bluff,-46.6,168.3333,60.35,71,33,2.04,NZ,1612573798
mataura,-46.1927,168.8643,75.88,48,38,3.47,NZ,1612573799
hermanus,-34.4187,19.2345,66.99,88,4,1.99,ZA,1612573614
mar del plata,-38.0023,-57.5575,69.8,46,0,5.75,AR,1612573751
naze,28.3667,129.4833,69.8,64,20,16.11,JP,1612573799
kahului,20.8947,-156.47,75.2,53,40,11.5,US,1612573799
atuona,-9.8,-139.0333,79.45,81,40,17.83,PF,1612573799
khatanga,71.9667,102.5,-33.66,79,9,7.56,RU,1612573800
innisfail,-17.5333,146.0333,81.0,70,49,1.01,AU,1612573800
albany,42.6001,-73.9662,37.0,70,9,5.97,US,1612573592
elko,41.0002,-115.5012,42.8,39,90,6.91,US,1612573800
busselton,-33.65,115.3333,64.0,72,100,7.0,AU,1612573800
new norfolk,-42.7826,147.0587,75.99,75,1,1.99,AU,1612573714
zabid,14.1951,43.3152,70.27,80,0,5.75,YE,1612573800
bredasdorp,-34.5322,20.0403,60.8,94,0,1.14,ZA,1612573801
louga,58.7372,29.8453,1.94,93,87,7.9,RU,1612573801
road town,18.4167,-64.6167,78.8,69,40,8.05,VG,1612573801
puri,19.8,85.85,59.0,94,0,6.02,IN,1612573801
kirakira,-10.4544,161.9205,83.91,76,100,11.03,SB,1612573801
avarua,-21.2078,-159.775,86.0,70,20,12.66,CK,1612573802
ushuaia,-54.8,-68.3,46.4,76,75,26.46,AR,1612573802
ugoofaaru,5.6667,73.0,81.25,76,100,10.92,MV,1612573802
rawson,-43.3002,-65.1023,63.18,68,0,27.85,AR,1612573802
phalaborwa,-23.943,31.1411,73.4,94,100,4.61,ZA,1612573803
alice springs,-23.7,133.8833,82.99,31,90,12.66,AU,1612573803
hays,30.0502,-98.0336,51.01,80,0,3.0,US,1612573803
nakhon phanom,17.3333,104.4167,66.2,72,0,5.75,TH,1612573803
cape town,-33.9258,18.4232,69.01,88,0,17.27,ZA,1612573754
lisala,2.15,21.5167,70.27,88,100,1.36,CD,1612573803
newport,51.5877,-2.9984,36.0,93,30,5.84,GB,1612573803
dikson,73.5069,80.5464,-31.65,85,9,10.87,RU,1612573804
anuradhapura,8.3565,80.4173,68.7,97,21,4.54,LK,1612573804
mincivan,39.0294,46.7185,48.34,52,0,6.04,AZ,1612573804
ardmore,34.1743,-97.1436,52.0,37,40,7.31,US,1612573804
georgetown,5.4112,100.3354,81.0,83,20,6.02,MY,1612573804
baguer,7.2561,124.5042,82.54,65,76,4.56,PH,1612573804
hambantota,6.1241,81.1185,73.4,100,75,3.44,LK,1612573805
grindavik,63.8424,-22.4338,35.6,75,40,17.27,IS,1612573528
qaanaaq,77.484,-69.3632,-4.9,77,100,7.94,GL,1612573805
tasiilaq,65.6145,-37.6368,26.6,74,75,21.85,GL,1612573805
cabo san lucas,22.8909,-109.9124,77.0,53,20,11.5,MX,1612573805
zhengjiatun,43.5064,123.5064,15.03,93,37,8.5,CN,1612573805
solosolo,-13.875,-171.6418,75.2,94,90,13.8,WS,1612573805
bambous virieux,-20.3428,57.7575,77.0,88,75,6.91,MU,1612573806
geraldton,-28.7667,114.6,64.4,77,90,23.02,AU,1612573806
jijiga,9.35,42.8,54.9,42,0,2.08,ET,1612573806
laguna,38.421,-121.4238,62.6,39,1,6.91,US,1612573627
anshun,26.25,105.9333,47.37,86,100,3.58,CN,1612573806
pacific grove,36.6177,-121.9166,57.99,76,1,8.1,US,1612573806
san lorenzo,-25.3333,-57.5333,71.6,73,0,3.44,PY,1612573807
puerto ayora,-0.7393,-90.3518,77.0,94,77,7.0,EC,1612573807
saint-philippe,-21.3585,55.7679,78.8,65,0,6.91,RE,1612573807
rikitea,-23.1203,-134.9692,77.38,76,1,18.5,PF,1612573807
nantucket,41.2835,-70.0995,42.01,100,90,8.05,US,1612573807
yellowknife,62.456,-114.3525,-31.0,68,90,10.36,CA,1612573629
korla,41.7597,86.1469,25.03,83,26,1.61,CN,1612573807
luanda,-8.8368,13.2343,78.8,83,20,6.91,AO,1612573771
kangaatsiaq,68.3065,-53.4641,10.58,83,100,14.16,GL,1612573808
airai,-8.9266,125.4092,67.15,96,100,5.1,TL,1612573808
hobart,-42.8794,147.3294,77.0,53,75,13.8,AU,1612573704
puro,12.4841,123.3827,80.51,79,75,10.67,PH,1612573808
marrakesh,31.6315,-8.0083,50.0,93,94,8.05,MA,1612573745
ponta do sol,32.6667,-17.1,51.01,69,52,4.0,PT,1612573808
anadyr,64.75,177.4833,1.4,85,75,15.66,RU,1612573809
bilibino,68.0546,166.4372,-8.79,78,100,3.67,RU,1612573809
beringovskiy,63.05,179.3167,-3.62,88,100,7.96,RU,1612573809
upernavik,72.7868,-56.1549,6.3,72,100,5.86,GL,1612573809
zwedru,6.0667,-8.1281,74.88,96,37,4.29,LR,1612573809
ulkan,57.243,107.3223,2.43,91,100,4.79,RU,1612573809
puerto ayacucho,5.6639,-67.6236,81.12,63,85,3.11,VE,1612573809
aklavik,68.2191,-135.0107,-32.8,68,20,4.61,CA,1612573810
thompson,55.7435,-97.8558,-20.2,69,75,13.8,CA,1612573810
pisco,-13.7,-76.2167,71.6,83,0,10.36,PE,1612573658
nyurba,63.2842,118.3319,-40.72,80,28,4.05,RU,1612573524
chuy,-33.6971,-53.4616,60.42,85,0,6.76,UY,1612573810
lebu,-37.6167,-73.65,57.87,92,11,3.69,CL,1612573810
aswan,24.0934,32.907,57.06,52,0,10.04,EG,1612573810
council bluffs,41.2619,-95.8608,19.0,67,1,3.44,US,1612573811
poya,-21.35,165.15,82.58,71,47,5.5,NC,1612573811
bubaque,11.2833,-15.8333,78.21,62,100,16.53,GW,1612573811
kormilovka,55.0026,74.1028,30.2,100,90,8.95,RU,1612573811
warri,5.5167,5.75,79.83,85,5,3.24,NG,1612573811
jamestown,42.097,-79.2353,23.0,68,90,17.27,US,1612573811
vaini,-21.2,-175.2,84.2,89,75,4.61,TO,1612573811
hilo,19.7297,-155.09,75.2,64,90,10.36,US,1612573812
tazovskiy,67.4667,78.7,-35.93,82,88,6.96,RU,1612573812
firminy,45.3873,4.2907,53.6,62,0,5.75,FR,1612573812
kalmunai,7.4167,81.8167,75.58,88,81,8.28,LK,1612573812
narsaq,60.9167,-46.05,12.2,57,0,5.75,GL,1612573812
mandalgovi,45.7625,106.2708,6.98,92,95,11.25,MN,1612573812
butaritari,3.0707,172.7902,81.52,80,35,18.39,KI,1612573813
mahanoro,-19.9,48.8,75.4,84,100,4.25,MG,1612573813
guarapari,-20.6667,-40.4975,82.4,74,75,10.36,BR,1612573813
barber,12.2833,-69.0667,78.8,78,20,14.97,CW,1612573813
kavieng,-2.5744,150.7967,83.3,72,73,4.05,PG,1612573739
tuatapere,-46.1333,167.6833,68.2,64,29,6.62,NZ,1612573813
akyab,20.15,92.9,60.93,63,0,5.19,MM,1612573795
kenai,60.5544,-151.2583,16.0,79,90,6.91,US,1612573814
kodiak,57.79,-152.4072,39.2,65,40,12.66,US,1612573715
hamilton,39.1834,-84.5333,35.01,55,1,8.05,US,1612573699
port elizabeth,-33.918,25.5701,71.6,88,90,6.91,ZA,1612573716
bundaberg,-24.85,152.35,88.0,48,0,5.75,AU,1612573566
yerbogachen,61.2767,108.0108,-7.78,91,100,3.33,RU,1612573814
coquimbo,-29.9533,-71.3436,60.8,88,75,6.91,CL,1612573814
dingle,10.9995,122.6711,80.94,80,81,12.19,PH,1612573815
strezhevoy,60.7333,77.5889,17.6,93,75,8.95,RU,1612573815
brae,60.3964,-1.353,33.8,64,90,23.02,GB,1612573815
krasnyy klyuch,55.3863,56.6529,35.08,95,100,12.66,RU,1612573815
faanui,-16.4833,-151.75,81.39,65,0,5.26,PF,1612573815
saint george,37.1041,-113.5841,55.99,24,1,16.11,US,1612573601
zhangye,38.9342,100.4517,25.61,73,0,5.19,CN,1612573815
per,47.6115,17.8063,39.2,100,90,5.75,HU,1612573815
bud,39.447,-86.1758,30.0,73,67,8.81,US,1612573816
wenling,28.3669,121.36,62.01,91,92,8.14,CN,1612573816
severo-kurilsk,50.6789,156.125,16.38,81,71,6.38,RU,1612573816
shakhtinsk,49.71,72.5872,28.4,80,90,11.18,KZ,1612573816
hanting,36.7708,119.2108,46.62,48,0,11.39,CN,1612573816
port lincoln,-34.7333,135.8667,66.61,70,73,17.05,AU,1612573617
touros,-5.1989,-35.4608,75.2,88,20,8.05,BR,1612573816
prachuap khiri khan,12.2167,99.75,73.4,68,40,3.44,TH,1612573816
luderitz,-26.6481,15.1594,70.23,51,0,21.12,NA,1612573817
half moon bay,37.4636,-122.4286,60.01,82,1,8.05,US,1612573649
havoysund,70.9963,24.6622,26.6,86,90,17.27,NO,1612573817
saskylakh,71.9167,114.0833,-30.05,84,78,5.17,RU,1612573817
san ramon,37.7799,-121.978,64.4,36,1,9.22,US,1612573574
constitucion,-35.3333,-72.4167,56.95,90,0,0.45,CL,1612573817
markapur,15.7333,79.2833,63.72,84,0,1.12,IN,1612573818
port alfred,-33.5906,26.891,69.01,93,100,14.92,ZA,1612573818
tiksi,71.6872,128.8694,-19.35,88,100,8.43,RU,1612573818
porto novo,6.4965,2.6036,84.2,84,40,12.66,BJ,1612573818
paramonga,-10.6667,-77.8333,69.82,83,94,6.73,PE,1612573818
setermoen,68.861,18.3486,24.8,86,99,10.36,NO,1612573818
bulolo,-7.2,146.65,85.1,57,96,0.18,PG,1612573818
luzhou,28.8724,105.4405,53.64,71,100,1.79,CN,1612573818
pekan,3.4836,103.3996,75.2,94,20,3.44,MY,1612573819
ribeira grande,38.5167,-28.7,59.2,84,100,12.73,PT,1612573710
buraydah,26.326,43.975,53.6,94,75,8.05,SA,1612573819
bossangoa,6.4926,17.4552,70.45,25,6,2.55,CF,1612573819
namibe,-15.1961,12.1522,70.2,83,52,7.43,AO,1612573819
tiznit,29.5833,-9.5,51.94,67,99,4.88,MA,1612573819
saldanha,-33.0117,17.9442,62.6,82,0,10.36,ZA,1612573819
sabang,5.8933,95.3214,81.3,77,3,16.89,ID,1612573820
nanortalik,60.1432,-45.2371,20.21,73,0,3.69,GL,1612573723
cabo rojo,18.0866,-67.1457,79.0,87,12,1.01,PR,1612573820
mantua,45.1667,10.7833,48.0,94,100,1.01,IT,1612573820
grand gaube,-20.0064,57.6608,75.99,84,27,5.99,MU,1612573552
owando,-0.4819,15.8999,74.62,77,37,1.7,CG,1612573820
zyryanovsk,49.7386,84.2719,25.86,98,100,0.54,KZ,1612573820
arraial do cabo,-22.9661,-42.0278,75.54,94,100,9.42,BR,1612573821
tabas,33.5959,56.9244,46.4,23,22,4.61,IR,1612573821
anekal,12.7,77.7,60.8,100,20,3.44,IN,1612573570
padang,-0.9492,100.3543,77.0,88,20,2.3,ID,1612573775
pangnirtung,66.1451,-65.7125,24.3,92,100,4.9,CA,1612573706
lompoc,34.6391,-120.4579,61.0,51,1,11.5,US,1612573716
san patricio,28.017,-97.5169,60.8,72,90,13.8,US,1612573821
brigantine,39.4101,-74.3646,41.0,93,40,11.99,US,1612573822
vao,-22.6667,167.4833,78.6,83,0,9.37,NC,1612573822
paracuru,-3.41,-39.0306,81.0,75,17,15.99,BR,1612573822
coahuayana,18.7333,-103.6833,69.8,83,40,2.91,MX,1612573822
ketchikan,55.3422,-131.6461,37.4,87,90,3.44,US,1612573822
svetlaya,46.5389,138.3297,15.17,88,97,4.76,RU,1612573822
iqaluit,63.7506,-68.5145,23.0,86,75,24.16,CA,1612573607
dormidontovka,47.7702,134.9076,-2.33,92,91,8.08,RU,1612573822
baicheng,45.6167,122.8167,9.03,93,100,6.46,CN,1612573823
benghazi,32.1167,20.0667,60.69,66,0,7.78,LY,1612573823
los llanos de aridane,28.6585,-17.9182,62.6,51,0,17.27,ES,1612573823
valparaiso,-33.0393,-71.6273,60.8,88,75,5.75,CL,1612573709
codrington,-38.2667,141.9667,65.3,64,0,16.62,AU,1612573823
kununurra,-15.7667,128.7333,84.2,89,40,5.75,AU,1612573823
auki,-8.7676,160.7034,85.66,64,83,10.0,SB,1612573824
soloneshnoye,51.6544,84.3197,28.15,96,100,3.2,RU,1612573824
takoradi,4.8845,-1.7554,79.41,88,0,10.49,GH,1612573824
broken hill,-31.95,141.4333,71.6,49,0,18.41,AU,1612573824
eyl,7.9803,49.8164,70.57,79,23,10.36,SO,1612573825
hithadhoo,-0.6,73.0833,81.79,80,100,15.14,MV,1612573825
skjervoy,70.0311,20.9714,30.81,92,100,18.61,NO,1612573825
lufilufi,-13.8745,-171.5986,75.2,94,90,13.8,WS,1612573825
havelock,34.8791,-76.9013,53.6,100,40,10.36,US,1612573825
shostka,51.863,33.4698,11.03,96,100,8.46,UA,1612573825
sorong,-0.8833,131.25,83.53,72,71,3.0,ID,1612573825
vostok,46.4856,135.8833,6.31,93,100,3.42,RU,1612573825
praia da vitoria,38.7333,-27.0667,57.99,94,75,15.77,PT,1612573826
kruisfontein,-34.0033,24.7314,71.01,86,81,3.0,ZA,1612573715
shemonaikha,50.6328,81.9056,24.64,97,100,8.81,KZ,1612573826
barrow,71.2906,-156.7887,-11.2,77,20,8.05,US,1612573826
chapleau,47.8405,-83.4034,14.0,73,90,13.8,CA,1612573826
bilma,18.6853,12.9164,61.7,30,0,7.76,NE,1612573826
chynov,49.4068,14.8112,37.99,95,100,2.57,CZ,1612573827
nikolskoye,59.7035,30.7861,10.0,78,75,11.18,RU,1612573705
bethel,41.3712,-73.414,36.0,93,1,9.15,US,1612573827
sola,-13.8833,167.55,81.52,79,34,11.95,VU,1612573827
ajnala,31.8425,74.7589,46.4,93,0,1.97,IN,1612573827
nome,64.5011,-165.4064,15.8,86,90,24.16,US,1612573827
mount isa,-20.7333,139.5,86.0,51,98,9.22,AU,1612573827
vila franca do campo,37.7167,-25.4333,57.99,94,75,9.22,PT,1612573827
karratha,-20.7377,116.8463,82.58,67,23,11.1,AU,1612573827
clyde river,70.4692,-68.5914,-14.8,76,90,10.36,CA,1612573828
ridgecrest,35.6225,-117.6709,66.99,15,1,3.44,US,1612573575
altay,47.8667,88.1167,16.0,83,77,2.73,CN,1612573828
haines junction,60.7522,-137.5108,-11.2,64,100,1.41,CA,1612573731
chifeng,42.2683,118.9636,18.79,92,0,5.14,CN,1612573828
manama,26.2154,50.5832,68.0,83,0,10.36,BH,1612573718
kulhudhuffushi,6.6221,73.07,81.66,71,54,10.25,MV,1612573828
smithers,54.7804,-127.1743,30.2,80,90,9.22,CA,1612573610
dauphin,51.1494,-100.0502,-11.2,70,75,6.91,CA,1612573829
guerrero negro,27.9769,-114.0611,62.2,58,0,17.63,MX,1612573709
cidreira,-30.1811,-50.2056,67.32,73,0,14.18,BR,1612573829
esperance,-33.8667,121.9,62.6,88,90,10.36,AU,1612573829
marawi,7.9986,124.2928,79.0,79,0,4.0,PH,1612573829
paka,4.6374,103.4368,75.2,94,40,7.09,MY,1612573688
nalut,30.3333,10.85,57.96,34,69,12.66,LY,1612573829
ryotsu,38.0833,138.4333,41.0,75,40,11.5,JP,1612573830
dagshai,30.8833,77.05,34.65,83,0,4.76,IN,1612573830
opuwo,-18.0607,13.84,71.4,42,70,5.12,NA,1612573830
cap-aux-meules,47.3821,-61.8597,32.0,86,98,10.36,CA,1612573830
samarai,-10.6167,150.6667,85.1,70,0,6.73,PG,1612573830
pauini,-7.7136,-66.9764,73.78,98,100,3.83,BR,1612573830
hami,42.8,93.45,27.3,85,0,5.01,CN,1612573830
saint anthony,45.0205,-93.218,8.6,61,1,13.8,US,1612573830
provideniya,64.3833,-173.3,8.92,92,100,11.1,RU,1612573831
katsuura,35.1333,140.3,52.0,49,20,3.44,JP,1612573791
sechura,-5.5569,-80.8222,77.81,62,94,16.4,PE,1612573787
portland,45.5234,-122.6762,52.0,85,97,4.81,US,1612573831
tavistock,50.5494,-4.1442,37.99,90,0,1.99,GB,1612573831
marzuq,14.4,46.4667,54.37,34,0,4.52,YE,1612573814
cockburn town,21.4612,-71.1419,77.13,84,0,20.09,TC,1612573768
synya,65.3718,58.0387,-11.83,89,100,9.69,RU,1612573831
conceicao do araguaia,-8.2578,-49.2647,76.01,91,100,3.47,BR,1612573832
pudozh,61.8099,36.5345,-2.94,90,100,8.68,RU,1612573832
east london,-33.0153,27.9116,73.63,89,97,10.13,ZA,1612573666
the valley,18.217,-63.0578,78.8,65,20,9.22,AI,1612573832
abonnema,4.7084,6.7931,80.6,89,20,7.0,NG,1612573832
bengkulu,-3.8004,102.2655,78.89,76,89,4.79,ID,1612573832
gamba,-2.65,10.0,78.44,87,100,5.1,GA,1612573832
kloulklubed,7.0419,134.2556,77.0,94,90,14.16,PW,1612573833
nouadhibou,20.931,-17.0347,62.6,77,40,6.91,MR,1612573814
tura,25.5198,90.2201,58.77,51,0,2.35,IN,1612573833
castro,-24.7911,-50.0119,60.55,58,0,3.33,BR,1612573833
kavaratti,10.5669,72.642,80.53,75,93,13.24,IN,1612573833
payakumbuh,-0.2202,100.6308,71.42,87,92,1.92,ID,1612573833
north vernon,39.0062,-85.6236,34.0,69,40,8.05,US,1612573833
sao joao da barra,-21.6403,-41.0511,78.17,89,100,5.21,BR,1612573833
qaqortoq,60.7167,-46.0333,12.2,57,0,5.75,GL,1612573834
boddam,57.4667,-1.7833,35.6,93,90,16.11,GB,1612573834
medvedka,61.1629,46.387,-5.8,90,100,12.24,RU,1612573834
chokurdakh,70.6333,147.9167,-16.82,87,95,12.1,RU,1612573834
hajipur,25.6833,85.2167,59.0,77,75,3.44,IN,1612573834
mackay,-21.15,149.2,84.99,69,90,5.75,AU,1612573834
tarsus,36.9188,34.8784,48.2,76,0,2.91,TR,1612573834
kenora,49.8167,-94.4337,-2.0,71,90,16.11,CA,1612573699
den helder,52.9599,4.7593,39.2,93,90,12.66,NL,1612573835
champerico,14.3,-91.9167,80.6,78,75,9.22,GT,1612573835
calama,-22.4667,-68.9333,64.4,36,0,12.66,CL,1612573835
sisimiut,66.9395,-53.6735,15.37,78,100,14.25,GL,1612573835
sakakah,29.9697,40.2064,53.6,76,0,8.05,SA,1612573835
wakkanai,45.4094,141.6739,24.8,93,75,2.3,JP,1612573835
samokov,42.3333,23.55,43.0,93,29,5.06,BG,1612573835
cayenne,4.9333,-52.3333,78.8,89,75,9.22,GF,1612573566
karakol,42.4907,78.3936,24.21,72,100,3.8,KG,1612573836
almaznyy,48.0448,40.045,23.0,74,40,13.42,RU,1612573836
unguia,8.0434,-77.0945,77.81,84,95,3.18,CO,1612573836
abu samrah,35.3029,37.1841,47.75,88,0,4.45,SY,1612573812
hobyo,5.3505,48.5268,75.54,74,27,15.03,SO,1612573837
el alto,-4.2714,-81.2147,73.18,78,79,16.49,PE,1612573837
cherskiy,68.75,161.3,-12.68,77,100,1.45,RU,1612573837
la asuncion,11.0333,-63.8628,76.71,82,19,15.59,VE,1612573837
okhotsk,59.3833,143.3,0.7,86,100,7.4,RU,1612573837
namatanai,-3.6667,152.4333,82.83,70,96,4.79,PG,1612573706
wad madani,14.4012,33.5199,56.82,37,0,9.89,SD,1612573837
asau,46.4333,26.4,34.0,74,100,1.52,RO,1612573837
martapura,-3.4167,114.85,80.6,83,99,3.44,ID,1612573838
la ronge,55.1001,-105.2842,-20.2,69,39,11.5,CA,1612573838
lagoa,39.05,-27.9833,58.33,86,98,16.8,PT,1612573838
iquitos,-3.7481,-73.2472,78.8,89,75,6.91,PE,1612573838
nador,35.174,-2.9287,59.0,72,0,6.91,MA,1612573838
jambi,-1.6,103.6167,78.03,82,49,5.21,ID,1612573838
ca mau,9.1769,105.15,79.36,68,40,10.58,VN,1612573838
male,4.1748,73.5089,80.6,78,75,5.75,MV,1612573838
orel-izumrud,43.4583,39.9244,41.0,81,100,4.47,RU,1612573839
sitka,57.0531,-135.33,35.6,87,90,3.58,US,1612573839
viransehir,37.2353,39.7631,44.89,60,0,6.78,TR,1612573839
mana,5.6592,-53.7767,77.31,85,98,13.02,GF,1612573839
sobolevo,54.4299,31.8996,-0.2,93,50,8.23,RU,1612573734
sarakhs,36.5449,61.1577,59.0,25,48,6.91,IR,1612573839
quatre cocos,-20.2078,57.7625,78.8,78,40,9.22,MU,1612573839
lumding,25.7535,93.1732,55.8,68,0,1.03,IN,1612573840
akdepe,42.0551,59.3788,51.8,57,0,9.22,TM,1612573840
hovd,48.0056,91.6419,9.63,89,36,0.89,MN,1612573840
santander jimenez,24.2167,-98.4667,67.82,77,3,9.08,MX,1612573840
tuktoyaktuk,69.4541,-133.0374,-31.0,75,75,10.36,CA,1612573840
appleton,44.2619,-88.4154,9.0,66,75,16.11,US,1612573742
mahebourg,-20.4081,57.7,78.8,78,40,9.22,MU,1612573840
santa helena de goias,-17.8136,-50.5969,73.11,90,0,5.77,BR,1612573840
ukiah,39.1502,-123.2078,62.6,42,1,6.91,US,1612573841
saint-georges,12.0564,-61.7485,78.8,73,20,13.8,GD,1612573841
nuuk,64.1835,-51.7216,19.4,68,0,18.41,GL,1612573841
vestmannaeyjar,63.4427,-20.2734,40.41,70,81,27.11,IS,1612573841
ville-marie,47.3335,-79.433,23.0,80,90,26.46,CA,1612573609
tabou,4.423,-7.3528,78.78,91,0,7.07,CI,1612573841
alpena,45.0617,-83.4327,14.0,62,75,12.66,US,1612573841
santa cruz,-17.8,-63.1667,78.8,65,75,4.16,BO,1612573842
nishihara,26.1842,127.7558,71.6,43,20,5.75,JP,1612573842
belyy yar,53.6039,91.3903,3.2,85,100,2.24,RU,1612573842
asekeyevo,53.5742,52.7972,27.73,98,100,12.28,RU,1612573842
harper,4.375,-7.7169,79.14,89,0,8.39,LR,1612573755
torbay,47.6666,-52.7314,36.0,100,90,25.32,CA,1612573732
viedma,-40.8135,-62.9967,68.0,82,0,1.01,AR,1612573842
pevek,69.7008,170.3133,-17.07,86,2,0.83,RU,1612573842
carnarvon,-24.8667,113.6333,82.4,100,90,24.16,AU,1612573791
cuamba,-14.8031,36.5372,69.76,96,87,2.04,MZ,1612573843
ust-kuyga,70.0167,135.6,-35.32,80,90,3.31,RU,1612573843
xuanhua,40.6103,115.0447,29.26,82,6,5.48,CN,1612573843
san cristobal,7.7669,-72.225,67.69,83,100,1.9,VE,1612573843
changzhou,31.7833,119.9667,54.0,78,0,1.01,CN,1612573843
karaman,37.0833,33.25,36.7,79,0,1.97,TR,1612573843
roebourne,-20.7833,117.1333,82.83,66,7,10.16,AU,1612573843
port blair,11.6667,92.75,79.11,74,0,8.19,IN,1612573844
lusambo,-4.9667,23.45,70.81,91,100,2.59,CD,1612573755
adrar,20.5022,-10.0711,61.02,36,100,8.75,MR,1612573844
tashtyp,52.7939,89.8983,18.03,95,100,0.29,RU,1612573844
oistins,13.0667,-59.5333,78.8,61,20,21.85,BB,1612573810
koutiala,12.3917,-5.4642,76.51,19,99,3.91,ML,1612573844
anloga,5.7947,0.8973,84.2,84,40,10.36,GH,1612573844
vestmanna,62.1564,-7.1664,32.0,100,40,10.36,FO,1612573845
zhezkazgan,47.8043,67.7144,20.91,97,100,9.51,KZ,1612573845
mananjary,-21.2167,48.3333,76.39,87,100,6.38,MG,1612573845
vardo,70.3705,31.1107,28.35,89,99,23.91,NO,1612573749
la rioja,42.25,-2.5,51.8,82,0,8.05,ES,1612573845
porvoo,60.3923,25.6651,3.99,85,75,8.05,FI,1612573845
bonthe,7.5264,-12.505,77.41,81,1,8.03,SL,1612573845
dubbo,-32.25,148.6167,68.0,100,75,16.11,AU,1612573846
marsh harbour,26.5412,-77.0636,72.12,77,0,10.07,BS,1612573846
mount gambier,-37.8333,140.7667,64.4,68,40,13.8,AU,1612573846
mattru,7.6244,-11.8332,74.3,82,76,1.83,SL,1612573846
xingyi,24.1877,102.817,49.51,93,75,3.47,CN,1612573846
acapulco,16.8634,-99.8901,80.6,69,75,2.3,MX,1612573728
cheyenne,41.14,-104.8203,28.99,69,75,10.36,US,1612573846
coihaique,-45.5752,-72.0662,73.4,46,0,2.3,CL,1612573846
gongzhuling,43.5008,124.8198,14.2,95,63,7.74,CN,1612573847
comodoro rivadavia,-45.8667,-67.5,59.0,67,0,12.66,AR,1612573847
fairmont,39.4851,-80.1426,33.8,55,40,8.05,US,1612573847
vanimo,-2.6741,141.3028,81.21,74,84,5.12,PG,1612573847
araouane,18.9048,-3.5265,77.52,16,100,8.3,ML,1612573847
sorland,67.667,12.6934,34.81,84,100,24.87,NO,1612573848
sao filipe,14.8961,-24.4956,70.16,74,17,13.38,CV,1612573848
qui nhon,13.7667,109.2333,70.83,87,62,8.52,VN,1612573848
caramay,10.1815,119.236,79.84,86,100,10.83,PH,1612573848
westport,41.1415,-73.3579,37.99,87,1,6.91,US,1612573779
marsa matruh,31.3525,27.2453,59.0,82,75,6.91,EG,1612573848
flinders,-34.5833,150.8552,70.0,93,100,13.0,AU,1612573848
kandi,11.1342,2.9386,75.27,20,100,5.88,BJ,1612573848
vila velha,-20.3297,-40.2925,82.4,74,75,10.36,BR,1612573849
iskateley,67.6803,53.1512,-14.13,89,2,10.02,RU,1612573849
mpika,-11.8343,31.4529,61.88,96,100,0.85,ZM,1612573849
taoudenni,22.6783,-3.9836,72.72,25,100,9.37,ML,1612573849
hasaki,35.7333,140.8333,50.0,61,20,3.44,JP,1612573849
blacksburg,37.2296,-80.4139,33.8,64,1,3.44,US,1612573849
dudinka,69.4058,86.1778,-30.19,84,100,4.54,RU,1612573849
palmares do sul,-30.2578,-50.5097,68.05,72,0,12.44,BR,1612573850
komsomolskiy,40.4272,71.7189,37.4,48,100,4.61,UZ,1612573850
awbari,26.5921,12.7805,57.79,35,81,10.74,LY,1612573850
gimbi,9.1667,35.8333,49.87,47,0,0.34,ET,1612573850
hauterive,46.0901,3.4459,39.2,100,90,3.44,FR,1612573850
kaitangata,-46.2817,169.8464,62.01,71,91,8.01,NZ,1612573850
fukue,32.6881,128.8419,50.0,100,40,1.14,JP,1612573850
khandbari,27.3747,87.2039,49.15,64,59,3.18,NP,1612573851
atasu,48.6814,71.6433,20.44,95,47,6.31,KZ,1612573851
zemio,5.0314,25.1361,73.96,21,3,7.47,CF,1612573851
krasnoshchekovo,51.6708,82.7289,27.45,96,99,5.12,RU,1612573851
bouna,9.2667,-3.0,78.67,29,100,1.86,CI,1612573851
xuddur,4.1213,43.8894,65.17,91,0,15.7,SO,1612573851
prince rupert,54.3161,-130.3201,39.2,75,90,9.22,CA,1612573852
orbetello,42.4408,11.2196,46.99,81,1,5.75,IT,1612573852
zyryanka,65.75,150.85,-20.72,85,0,3.74,RU,1612573774
bandar-e lengeh,26.5579,54.8807,66.2,88,0,6.91,IR,1612573630
buritis,-15.6178,-46.4233,74.89,83,100,4.76,BR,1612573852
ilheus,-14.7889,-39.0494,82.4,83,75,14.97,BR,1612573852
amapa,1.0,-52.0,73.26,97,100,3.49,BR,1612573852
kirkland lake,48.1446,-80.0377,24.8,100,100,12.03,CA,1612573853
amarante do maranhao,-5.5667,-46.7422,73.62,94,100,2.64,BR,1612573853
emerald,-23.5333,148.1667,88.0,54,40,8.05,AU,1612573787
norden,53.6,7.2,32.0,84,100,8.01,DE,1612573813
safaga,26.7292,33.9365,62.6,67,0,12.66,EG,1612573853
sioux lookout,50.1001,-91.917,-2.2,71,90,18.41,CA,1612573853
carutapera,-1.195,-46.02,77.5,81,11,7.09,BR,1612573853
paamiut,61.994,-49.6678,21.29,77,0,5.88,GL,1612573854
celestun,20.8667,-90.4,74.34,78,0,8.1,MX,1612573567
sovetskiy,61.3614,63.5842,16.74,97,100,7.63,RU,1612573854
noyabrsk,63.1994,75.4507,6.84,95,100,11.21,RU,1612573854
qostanay,53.1667,63.5833,35.6,87,0,13.42,KZ,1612573854
chelbasskaya,45.9792,39.3719,30.36,85,33,11.16,RU,1612573854
viesca,25.35,-102.8,80.6,10,1,4.59,MX,1612573854
baruun-urt,46.6806,113.2792,-2.9,85,0,7.63,MN,1612573854
sterling,39.0062,-77.4286,41.0,45,1,6.91,US,1612573854
inuvik,68.3499,-133.7218,-22.0,69,24,2.3,CA,1612573589
nizhniy baskunchak,48.2198,46.8311,26.58,88,100,26.82,RU,1612573855
zlitan,32.4674,14.5687,62.89,34,0,12.01,LY,1612573855
razole,16.4833,81.8333,68.0,94,0,4.61,IN,1612573855
santiago de cao,-7.9589,-79.2392,71.56,72,100,9.69,PE,1612573855
mercedes,-34.6515,-59.4307,69.01,59,0,1.99,AR,1612573855
boguchar,49.9358,40.545,18.05,88,100,15.73,RU,1612573856
doha,25.2867,51.5333,69.8,88,0,10.36,QA,1612573856
zunyi,27.6867,106.9072,49.64,79,100,2.06,CN,1612573699
norman wells,65.282,-126.8329,-29.2,68,20,4.61,CA,1612573856
genhe,50.7833,121.5167,-12.68,85,57,1.79,CN,1612573856
souillac,-20.5167,57.5167,78.8,78,40,9.22,MU,1612573856
nybro,56.7446,15.9071,19.99,92,75,9.22,SE,1612573856
lahij,13.1667,44.5833,64.06,80,17,3.44,YE,1612573857
rawlins,41.7911,-107.2387,28.4,54,20,29.93,US,1612573857
hay river,60.8156,-115.7999,-23.8,69,100,4.61,CA,1612573760
batagay-alyta,67.8006,130.4114,-26.16,83,100,1.43,RU,1612573857
bathsheba,13.2167,-59.5167,78.8,61,20,21.85,BB,1612573857
te anau,-45.4167,167.7167,75.04,40,78,1.83,NZ,1612573857
ahipara,-35.1667,173.1667,70.68,67,92,3.8,NZ,1612573857
kyrylivka,46.3759,35.3675,31.8,88,100,9.89,UA,1612573858
ilulissat,69.2167,-51.1,10.4,31,98,13.8,GL,1612573724
dickson,36.077,-87.3878,39.2,52,20,4.88,US,1612573858
methoni,36.8197,21.7049,55.0,93,3,3.44,GR,1612573858
lewiston,44.1003,-70.2148,30.99,100,90,3.44,US,1612573765
crailsheim,49.1344,10.0719,43.0,93,90,3.44,DE,1612573858
krasnovishersk,60.4078,57.082,35.4,97,100,8.43,RU,1612573858
zapolyarnyy,69.4154,30.8136,26.6,59,75,19.57,RU,1612573859
ulladulla,-35.35,150.4667,71.6,100,75,5.75,AU,1612573859
sokna,60.24,9.9235,14.0,89,93,4.38,NO,1612573859
berlevag,70.8578,29.0864,26.82,92,100,21.61,NO,1612573723
antalaha,-14.9003,50.2788,73.83,88,100,4.38,MG,1612573859
deputatskiy,69.3,139.9,-24.21,88,100,1.99,RU,1612573859
lorengau,-2.0226,147.2712,83.17,74,89,7.94,PG,1612573859
ust-ilimsk,58.0006,102.6619,2.05,92,100,7.34,RU,1612573860
daru,-9.0763,143.2092,88.18,62,16,13.62,PG,1612573860
klamath falls,42.2249,-121.7817,42.8,61,1,10.36,US,1612573860
klaksvik,62.2266,-6.589,32.0,100,40,10.36,FO,1612573860
gushikawa,26.3544,127.8686,71.6,83,1,8.05,JP,1612573764
mehamn,71.0357,27.8492,25.97,93,100,19.46,NO,1612573860
aykhal,66.0,111.5,-34.71,81,23,3.89,RU,1612573860
guider,9.9342,13.9486,72.97,20,0,10.07,CM,1612573861
sinnamary,5.3833,-52.95,77.41,87,92,14.65,GF,1612573861
port augusta,-32.5,137.7667,73.4,53,90,14.97,AU,1612573861
windhoek,-22.5594,17.0832,66.99,88,27,1.14,NA,1612573861
san quintin,30.4833,-115.95,59.5,75,0,13.09,MX,1612573861
mahuva,21.0914,71.7622,63.59,36,0,15.7,IN,1612573861
sur,22.5667,59.5289,63.28,61,0,6.38,OM,1612573862
bentiu,9.2333,29.8333,67.8,23,0,7.67,SS,1612573862
yadgir,16.7667,77.1333,61.23,67,0,4.99,IN,1612573862
muskogee,35.5834,-95.3336,48.99,36,90,3.44,US,1612573862
fortuna,40.5982,-124.1573,51.01,93,90,12.66,US,1612573862
scottsbluff,41.8666,-103.6672,33.8,69,90,11.5,US,1612573862
kilrush,52.6397,-9.4833,42.8,93,75,5.75,IE,1612573862
presidencia roque saenz pena,-26.7852,-60.4388,75.0,65,0,1.99,AR,1612573863
banjarmasin,-3.3244,114.591,80.6,83,100,3.44,ID,1612573757
vinstra,61.5952,9.7523,7.56,78,13,4.43,NO,1612573863
isabela,6.7085,121.9711,80.6,78,75,3.44,PH,1612573747
sunrise manor,36.2111,-115.0731,62.6,20,1,5.75,US,1612573863
esso,55.9333,158.7,3.38,87,100,5.79,RU,1612573863
purna,19.1833,77.05,60.75,48,21,6.58,IN,1612573802
zhigansk,66.7697,123.3711,-42.66,75,73,4.16,RU,1612573863
ballina,-28.8667,153.5667,81.0,69,75,6.91,AU,1612573781
maraba,-5.3686,-49.1178,76.64,85,97,1.5,BR,1612573707
victoria,22.2855,114.1577,66.0,82,0,4.76,HK,1612573670
beloha,-25.1667,45.05,74.71,93,81,3.76,MG,1612573864
maningrida,-12.0667,134.2667,74.5,90,100,13.82,AU,1612573864
tilichiki,60.4667,166.1,5.43,96,100,8.66,RU,1612573864
baykit,61.67,96.37,-6.77,87,90,1.92,RU,1612573864
jalu,29.0331,21.5482,52.16,65,0,2.77,LY,1612573865
rupert,42.6191,-113.6772,39.2,60,1,21.85,US,1612573865
puerto cabezas,14.0351,-83.3888,75.96,89,100,4.65,NI,1612573865
madona,56.8533,26.217,-0.31,93,32,5.55,LV,1612573865
pinhao,-25.6956,-51.6597,55.11,90,0,3.42,BR,1612573865
karpogory,64.0019,44.4451,-10.95,87,100,11.05,RU,1612573865
leningradskiy,69.3833,178.4167,-9.06,87,100,8.14,RU,1612573865
talnakh,69.4865,88.3972,-27.56,83,51,4.56,RU,1612573866
moncton,46.1159,-64.8019,33.01,80,90,3.44,CA,1612573750
finnsnes,69.2296,17.9811,24.8,86,89,10.36,NO,1612573866
leh,34.1667,77.5833,0.99,60,0,2.53,IN,1612573866
mount hagen,-5.8581,144.2274,66.72,80,97,2.91,PG,1612573866
maiduguri,11.8464,13.1603,66.56,42,0,10.09,NG,1612573866
chebenki,51.9337,55.7077,35.6,93,90,6.71,RU,1612573866
saint-michel-des-saints,46.6834,-73.9159,26.01,95,33,8.48,CA,1612573866
wanaka,-44.7,169.15,75.24,45,93,3.13,NZ,1612573867
chicama,-7.8447,-79.1469,73.96,62,94,5.64,PE,1612573867
pitimbu,-7.4706,-34.8086,78.8,83,20,4.61,BR,1612573867
mandan,46.8267,-100.8896,5.0,71,1,13.8,US,1612573867
ikwiriri,-7.9562,38.9716,71.98,97,55,1.54,TZ,1612573867
parry sound,45.3501,-80.033,21.99,93,100,16.96,CA,1612573867
saurimo,-9.6608,20.3916,65.77,92,100,2.57,AO,1612573867
svetlogorsk,52.6333,29.7333,12.2,96,89,7.58,BY,1612573868
margate,51.3813,1.3862,45.0,92,0,1.01,GB,1612573592
bongaree,-27.0797,153.1586,84.99,67,30,3.89,AU,1612573868
rocha,-34.4833,-54.3333,58.53,87,0,5.55,UY,1612573868
dong xoai,11.5333,106.9167,74.86,70,95,3.89,VN,1612573722
labuhan,-6.8844,112.2051,81.19,80,99,11.1,ID,1612573868
venado tuerto,-33.7456,-61.9688,72.0,78,0,1.99,AR,1612573868
atikokan,48.7555,-91.6216,-4.59,89,100,12.44,CA,1612573868
camacupa,-12.0167,17.4833,62.71,96,100,2.04,AO,1612573869
holme,56.1138,10.1725,25.0,80,75,13.8,DK,1612573869
marystown,47.1666,-55.1483,34.68,88,100,16.62,CA,1612573869
meadow lake,34.8014,-106.5436,53.01,20,20,5.75,US,1612573869
la palma,33.8464,-118.0467,66.0,48,1,6.91,US,1612573598
sergeyevka,53.88,67.4158,34.48,98,100,11.88,KZ,1612573869
isangel,-19.55,169.2667,86.0,70,20,3.44,VU,1612573869
ardakan,32.31,54.0175,44.6,26,0,4.61,IR,1612573869
port hedland,-20.3167,118.5667,84.2,70,18,3.44,AU,1612573870
ngunguru,-35.6167,174.5,67.32,71,100,11.39,NZ,1612573870
bouafle,6.9904,-5.7442,80.6,78,79,4.61,CI,1612573870
conde,-7.2597,-34.9075,78.8,83,20,4.61,BR,1612573870
senno,59.5336,33.9167,2.41,93,100,9.37,RU,1612573870
vallenar,-28.5708,-70.7581,64.62,65,0,1.1,CL,1612573870
coventry,52.4066,-1.5122,42.01,93,75,3.44,GB,1612573629
caravelas,-17.7125,-39.2481,80.24,79,100,14.29,BR,1612573870
beira,-19.8436,34.8389,84.0,89,20,2.3,MZ,1612573870
etawah,26.7769,79.0239,49.51,66,0,5.01,IN,1612573871
oktyabrskiy,54.4815,53.471,26.15,97,100,10.98,RU,1612573871
san carlos de bariloche,-41.1456,-71.3082,75.2,31,0,6.91,AR,1612573809
roald,62.5833,6.1333,26.6,63,20,6.91,NO,1612573871
gat,31.61,34.7642,57.99,100,13,0.89,IL,1612573871
narva-joesuu,59.4589,28.0408,10.18,93,99,13.94,EE,1612573871
broome,42.2506,-75.833,30.2,59,90,14.97,US,1612573871
negara,-8.3151,114.6025,80.71,79,10,2.19,ID,1612573872
nedryhayliv,50.834,33.8763,10.45,95,1,8.32,UA,1612573872
port keats,-14.25,129.55,85.48,73,65,11.1,AU,1612573872
henties bay,-22.116,14.2845,64.0,90,35,1.01,NA,1612573872
santa maria do para,-1.3503,-47.5756,72.97,89,11,6.82,BR,1612573872
longjiang,47.3303,123.1836,-0.72,91,0,3.38,CN,1612573583
ambulu,-8.345,113.6058,78.98,82,90,1.54,ID,1612573872
dabola,10.75,-11.1167,72.81,26,0,3.44,GN,1612573872
faya,18.3851,42.4509,53.6,66,0,11.5,SA,1612573872
asyut,27.181,31.1837,51.8,76,0,10.36,EG,1612573873
addanki,15.8167,79.9833,64.18,88,0,1.92,IN,1612573866
pemba,-12.974,40.5178,80.6,83,20,4.61,MZ,1612573873
teya,60.3778,92.6267,-2.45,89,100,4.36,RU,1612573873
camocim,-2.9022,-40.8411,78.01,83,0,13.96,BR,1612573873
madison,34.7334,-86.5667,39.0,70,1,3.98,US,1612573758
huarmey,-10.0681,-78.1522,71.11,74,100,5.68,PE,1612573873
waingapu,-9.6567,120.2641,82.69,73,100,12.82,ID,1612573873
yinchuan,38.4681,106.2731,33.48,68,0,3.69,CN,1612573874
gao,16.6362,1.637,70.3,21,0,13.2,ML,1612573874
lemoore,36.3008,-119.7829,63.0,58,1,4.61,US,1612573874
dafeng,23.4517,108.5881,66.94,52,0,1.68,CN,1612573874
mokhotlong,-29.2894,29.0675,54.1,81,61,2.51,LS,1612573874
goderich,43.7501,-81.7165,19.4,73,100,29.93,CA,1612573874
umm kaddadah,13.6017,26.6876,55.96,38,0,12.26,SD,1612573874
miri,4.4148,114.0089,78.8,100,40,4.61,MY,1612573690
neustadt,49.7117,12.0872,37.99,93,90,4.61,DE,1612573875
ayan,56.45,138.1667,-8.7,83,100,13.13,RU,1612573875
glenwood springs,39.5505,-107.3248,25.0,85,90,9.22,US,1612573669
salalah,17.0151,54.0924,69.8,68,20,3.44,OM,1612573875
havre-saint-pierre,50.2334,-63.5986,32.0,86,90,11.5,CA,1612573875
sistranda,63.7256,8.834,21.2,86,20,17.27,NO,1612573811
arlit,18.7369,7.3853,64.2,26,0,7.45,NE,1612573875
larap,14.299,122.6504,78.8,88,38,9.89,PH,1612573876
bar harbor,44.3876,-68.2039,43.0,100,90,4.61,US,1612573876
cabreuva,-23.3075,-47.1328,71.6,88,75,6.91,BR,1612573876
aginskoye,51.1,114.53,-5.89,86,0,9.71,RU,1612573876
zaragoza,41.6561,-0.8773,54.0,87,40,2.89,ES,1612573673
hue,16.4667,107.6,66.2,94,20,2.3,VN,1612573876
yar-sale,66.8333,70.8333,-18.44,88,100,10.76,RU,1612573876
galveston,29.3669,-94.9669,55.4,67,90,17.27,US,1612573876
cabatuan,10.8794,122.486,80.33,79,27,13.22,PH,1612573877
xichang,27.8964,102.2634,43.72,60,0,0.2,CN,1612573877
richards bay,-28.783,32.0377,75.27,90,84,1.25,ZA,1612573877
tessalit,20.1986,1.0114,71.31,19,100,14.29,ML,1612573877
